{
"type": "FeatureCollection",
"name": "amenities",
"crs": { "type": "name", "properties": { "name": "urn:ogc:def:crs:OGC:1.3:CRS84" } },
"features": [
{ "type": "Feature", "properties": { "element": "node", "id": 434789235, "name": "Madabolic", "category": "gym" }, "geometry": { "type": "Point", "coordinates": [ -89.437968, 43.0753229 ] } },
{ "type": "Feature", "properties": { "element": "node", "id": 711297011, "name": "Fresh Madison Market", "category": "grocery" }, "geometry": { "type": "Point", "coordinates": [ -89.3976601, 43.0730022 ] } },
{ "type": "Feature", "properties": { "element": "node", "id": 761533799, "name": "Trader Joe's", "category": "grocery" }, "geometry": { "type": "Point", "coordinates": [ -89.4174475, 43.0649298 ] } },
{ "type": "Feature", "properties": { "element": "node", "id": 845149801, "name": "Pick 'n Save", "category": "grocery" }, "geometry": { "type": "Point", "coordinates": [ -89.3495821, 43.1131659 ] } },
{ "type": "Feature", "properties": { "element": "node", "id": 849245178, "name": "Walgreens", "category": "pharmacy" }, "geometry": { "type": "Point", "coordinates": [ -89.5342339, 42.9908341 ] } },
{ "type": "Feature", "properties": { "element": "node", "id": 956781814, "name": "Hy-Vee", "category": "grocery" }, "geometry": { "type": "Point", "coordinates": [ -89.3185089, 43.1180301 ] } },
{ "type": "Feature", "properties": { "element": "node", "id": 1191374262, "name": "Walgreens", "category": "pharmacy" }, "geometry": { "type": "Point", "coordinates": [ -89.3821932, 43.0742673 ] } },
{ "type": "Feature", "properties": { "element": "node", "id": 1202721585, "name": "Walgreens", "category": "pharmacy" }, "geometry": { "type": "Point", "coordinates": [ -89.4775084, 43.0324431 ] } },
{ "type": "Feature", "properties": { "element": "node", "id": 1206305166, "name": "Stemphi Memorial Field", "category": "gym" }, "geometry": { "type": "Point", "coordinates": [ -89.5196268, 42.9929948 ] } },
{ "type": "Feature", "properties": { "element": "node", "id": 1291940972, "name": "CVS Pharmacy", "category": "pharmacy" }, "geometry": { "type": "Point", "coordinates": [ -89.3923871, 43.0685549 ] } },
{ "type": "Feature", "properties": { "element": "node", "id": 2179347883, "name": "Middleton Pump Track", "category": "gym" }, "geometry": { "type": "Point", "coordinates": [ -89.5429578, 43.0886959 ] } },
{ "type": "Feature", "properties": { "element": "node", "id": 2343944114, "name": "Aldi", "category": "grocery" }, "geometry": { "type": "Point", "coordinates": [ -89.4786218, 43.0151464 ] } },
{ "type": "Feature", "properties": { "element": "node", "id": 2522840407, "name": "Walgreens", "category": "pharmacy" }, "geometry": { "type": "Point", "coordinates": [ -89.398893, 43.0723327 ] } },
{ "type": "Feature", "properties": { "element": "node", "id": 2969303603, "name": "Bombay Bazaar", "category": "grocery" }, "geometry": { "type": "Point", "coordinates": [ -89.5026338, 43.047872 ] } },
{ "type": "Feature", "properties": { "element": "node", "id": 2969303604, "name": "Istanbul Market", "category": "grocery" }, "geometry": { "type": "Point", "coordinates": [ -89.5025853, 43.0481144 ] } },
{ "type": "Feature", "properties": { "element": "node", "id": 3016577735, "name": "Redsten Gymnasium", "category": "gym" }, "geometry": { "type": "Point", "coordinates": [ -89.3290792, 43.1210682 ] } },
{ "type": "Feature", "properties": { "element": "node", "id": 3084751933, "name": "Willy St Co-Op North", "category": "grocery" }, "geometry": { "type": "Point", "coordinates": [ -89.3627604, 43.1277689 ] } },
{ "type": "Feature", "properties": { "element": "node", "id": 3227481892, "name": "Madison Circus Space", "category": "gym" }, "geometry": { "type": "Point", "coordinates": [ -89.3543091, 43.0942144 ] } },
{ "type": "Feature", "properties": { "element": "node", "id": 3289280963, "name": "Willy Street Co-Op", "category": "grocery" }, "geometry": { "type": "Point", "coordinates": [ -89.5003844, 43.0965864 ] } },
{ "type": "Feature", "properties": { "element": "node", "id": 3391148930, "name": "Natatorium", "category": "gym" }, "geometry": { "type": "Point", "coordinates": [ -89.5363063, 42.9955448 ] } },
{ "type": "Feature", "properties": { "element": "node", "id": 3737332668, "name": "Barre3", "category": "gym" }, "geometry": { "type": "Point", "coordinates": [ -89.4300924, 43.0725768 ] } },
{ "type": "Feature", "properties": { "element": "node", "id": 4003413199, "name": "Princeton Club Xpress", "category": "gym" }, "geometry": { "type": "Point", "coordinates": [ -89.4871817, 43.1015476 ] } },
{ "type": "Feature", "properties": { "element": "node", "id": 4120121700, "name": "Waunakee Aquatic Center", "category": "gym" }, "geometry": { "type": "Point", "coordinates": [ -89.4560155, 43.182747 ] } },
{ "type": "Feature", "properties": { "element": "node", "id": 4127108041, "name": "Swagat Indian Grocery", "category": "grocery" }, "geometry": { "type": "Point", "coordinates": [ -89.4981134, 43.056296 ] } },
{ "type": "Feature", "properties": { "element": "node", "id": 4127294889, "name": "J&P Fresh Market", "category": "grocery" }, "geometry": { "type": "Point", "coordinates": [ -89.497761, 43.050504 ] } },
{ "type": "Feature", "properties": { "element": "node", "id": 4199657089, "name": "Anytime Fitness", "category": "gym" }, "geometry": { "type": "Point", "coordinates": [ -89.2677269, 43.0853515 ] } },
{ "type": "Feature", "properties": { "element": "node", "id": 4200704143, "name": "Body Mechanix", "category": "gym" }, "geometry": { "type": "Point", "coordinates": [ -89.5157631, 43.0957058 ] } },
{ "type": "Feature", "properties": { "element": "node", "id": 4200704153, "name": "The Little Gym", "category": "gym" }, "geometry": { "type": "Point", "coordinates": [ -89.5148384, 43.0963144 ] } },
{ "type": "Feature", "properties": { "element": "node", "id": 4200795816, "name": "REFORMadison", "category": "gym" }, "geometry": { "type": "Point", "coordinates": [ -89.5114284, 43.0951938 ] } },
{ "type": "Feature", "properties": { "element": "node", "id": 4217643175, "name": "Anytime Fitness", "category": "gym" }, "geometry": { "type": "Point", "coordinates": [ -89.5015321, 43.0842604 ] } },
{ "type": "Feature", "properties": { "element": "node", "id": 4379916328, "name": "Festival Foods", "category": "grocery" }, "geometry": { "type": "Point", "coordinates": [ -89.375034, 43.0814796 ] } },
{ "type": "Feature", "properties": { "element": "node", "id": 4428326289, "name": "Dance Life", "category": "gym" }, "geometry": { "type": "Point", "coordinates": [ -89.4999836, 43.0512913 ] } },
{ "type": "Feature", "properties": { "element": "node", "id": 4585766568, "name": "CVS Pharmacy", "category": "pharmacy" }, "geometry": { "type": "Point", "coordinates": [ -89.3062073, 43.1191462 ] } },
{ "type": "Feature", "properties": { "element": "node", "id": 4595167619, "name": "CVS Pharmacy", "category": "pharmacy" }, "geometry": { "type": "Point", "coordinates": [ -89.5248651, 43.062012 ] } },
{ "type": "Feature", "properties": { "element": "node", "id": 4610122622, "name": "Abarrotes Yuremi", "category": "grocery" }, "geometry": { "type": "Point", "coordinates": [ -89.4873936, 43.1035118 ] } },
{ "type": "Feature", "properties": { "element": "node", "id": 4638859659, "name": "Anytime Fitness", "category": "gym" }, "geometry": { "type": "Point", "coordinates": [ -89.4232046, 43.0178647 ] } },
{ "type": "Feature", "properties": { "element": "node", "id": 4782077421, "name": "Harbor Athletic Club", "category": "gym" }, "geometry": { "type": "Point", "coordinates": [ -89.4853784, 43.102837 ] } },
{ "type": "Feature", "properties": { "element": "node", "id": 4802719643, "name": "Perennial Yoga", "category": "gym" }, "geometry": { "type": "Point", "coordinates": [ -89.4226908, 43.0052931 ] } },
{ "type": "Feature", "properties": { "element": "node", "id": 4838816286, "name": "Forward Pharmacy", "category": "pharmacy" }, "geometry": { "type": "Point", "coordinates": [ -89.3265562, 43.075505 ] } },
{ "type": "Feature", "properties": { "element": "node", "id": 5065129253, "name": "Princeton Club Xpress", "category": "gym" }, "geometry": { "type": "Point", "coordinates": [ -89.3265731, 43.0605497 ] } },
{ "type": "Feature", "properties": { "element": "node", "id": 5180326899, "name": "Viet Hoa Market", "category": "grocery" }, "geometry": { "type": "Point", "coordinates": [ -89.325414, 43.0701236 ] } },
{ "type": "Feature", "properties": { "element": "node", "id": 5184881338, "name": "Miss Pole", "category": "gym" }, "geometry": { "type": "Point", "coordinates": [ -89.5129691, 43.0578214 ] } },
{ "type": "Feature", "properties": { "element": "node", "id": 5184881344, "name": "Planet Fitness", "category": "gym" }, "geometry": { "type": "Point", "coordinates": [ -89.5123147, 43.0584319 ] } },
{ "type": "Feature", "properties": { "element": "node", "id": 5184881346, "name": "Balance Chi", "category": "gym" }, "geometry": { "type": "Point", "coordinates": [ -89.5121443, 43.0590825 ] } },
{ "type": "Feature", "properties": { "element": "node", "id": 5260753508, "name": "Lee's Oriental", "category": "grocery" }, "geometry": { "type": "Point", "coordinates": [ -89.4428846, 43.0755678 ] } },
{ "type": "Feature", "properties": { "element": "node", "id": 5264735749, "name": "A-Mart Asian Grocery", "category": "grocery" }, "geometry": { "type": "Point", "coordinates": [ -89.4756271, 43.0503617 ] } },
{ "type": "Feature", "properties": { "element": "node", "id": 5371378868, "name": "Anytime Fitness", "category": "gym" }, "geometry": { "type": "Point", "coordinates": [ -89.4501467, 43.0546389 ] } },
{ "type": "Feature", "properties": { "element": "node", "id": 5473218353, "name": "Burn Boot Camp", "category": "gym" }, "geometry": { "type": "Point", "coordinates": [ -89.3236301, 43.0790901 ] } },
{ "type": "Feature", "properties": { "element": "node", "id": 5499721915, "name": "Princeton Club Xpress", "category": "gym" }, "geometry": { "type": "Point", "coordinates": [ -89.302424, 43.0154748 ] } },
{ "type": "Feature", "properties": { "element": "node", "id": 5499721919, "name": "Medicine Shoppe", "category": "pharmacy" }, "geometry": { "type": "Point", "coordinates": [ -89.3020722, 43.0161594 ] } },
{ "type": "Feature", "properties": { "element": "node", "id": 5548617659, "name": "Dragonfly Hot Yoga", "category": "gym" }, "geometry": { "type": "Point", "coordinates": [ -89.5264097, 43.0731046 ] } },
{ "type": "Feature", "properties": { "element": "node", "id": 5548617664, "name": "Orange Shoe", "category": "gym" }, "geometry": { "type": "Point", "coordinates": [ -89.5251608, 43.0733361 ] } },
{ "type": "Feature", "properties": { "element": "node", "id": 5559449399, "name": "Fitchburg Family Pharmacy", "category": "pharmacy" }, "geometry": { "type": "Point", "coordinates": [ -89.4186731, 43.0214675 ] } },
{ "type": "Feature", "properties": { "element": "node", "id": 5584566092, "name": "Anytime Fitness", "category": "gym" }, "geometry": { "type": "Point", "coordinates": [ -89.3988825, 43.072243 ] } },
{ "type": "Feature", "properties": { "element": "node", "id": 5594870302, "name": "Anytime Fitness", "category": "gym" }, "geometry": { "type": "Point", "coordinates": [ -89.3539535, 43.0921404 ] } },
{ "type": "Feature", "properties": { "element": "node", "id": 6285069841, "name": "Planet Fitness", "category": "gym" }, "geometry": { "type": "Point", "coordinates": [ -89.4570824, 43.0376704 ] } },
{ "type": "Feature", "properties": { "element": "node", "id": 6329640459, "name": "Inner Fire Yoga", "category": "gym" }, "geometry": { "type": "Point", "coordinates": [ -89.3610603, 43.0905916 ] } },
{ "type": "Feature", "properties": { "element": "node", "id": 6432883575, "name": "Planet Fitness", "category": "gym" }, "geometry": { "type": "Point", "coordinates": [ -89.3504254, 43.0449998 ] } },
{ "type": "Feature", "properties": { "element": "node", "id": 6532337684, "name": "Walgreens", "category": "pharmacy" }, "geometry": { "type": "Point", "coordinates": [ -89.4010108, 43.0624753 ] } },
{ "type": "Feature", "properties": { "element": "node", "id": 6865260269, "name": "Boulders Climbing Gym", "category": "gym" }, "geometry": { "type": "Point", "coordinates": [ -89.3833631, 43.0725795 ] } },
{ "type": "Feature", "properties": { "element": "node", "id": 6886520174, "name": "University Hospital Outpatient Pharmacy", "category": "pharmacy" }, "geometry": { "type": "Point", "coordinates": [ -89.4315328, 43.0761367 ] } },
{ "type": "Feature", "properties": { "element": "node", "id": 6887221672, "name": "CVS Pharmacy", "category": "pharmacy" }, "geometry": { "type": "Point", "coordinates": [ -89.4544394, 43.0748974 ] } },
{ "type": "Feature", "properties": { "element": "node", "id": 6893108869, "name": "UW Health Arboretum Clinic Outpatient Pharmacy", "category": "pharmacy" }, "geometry": { "type": "Point", "coordinates": [ -89.3979932, 43.0551975 ] } },
{ "type": "Feature", "properties": { "element": "node", "id": 6893155333, "name": "St. Vincent de Paul Charitable Pharmacy", "category": "pharmacy" }, "geometry": { "type": "Point", "coordinates": [ -89.4034594, 43.043154 ] } },
{ "type": "Feature", "properties": { "element": "node", "id": 6904286082, "name": "Emler Swim School Fitchburg", "category": "gym" }, "geometry": { "type": "Point", "coordinates": [ -89.4772044, 43.012074 ] } },
{ "type": "Feature", "properties": { "element": "node", "id": 6904292568, "name": "Anytime Fitness", "category": "gym" }, "geometry": { "type": "Point", "coordinates": [ -89.4780979, 43.0109841 ] } },
{ "type": "Feature", "properties": { "element": "node", "id": 7006164869, "name": "Great State CrossFit", "category": "gym" }, "geometry": { "type": "Point", "coordinates": [ -89.3805398, 43.035477 ] } },
{ "type": "Feature", "properties": { "element": "node", "id": 7066864446, "name": "Club Pilates", "category": "gym" }, "geometry": { "type": "Point", "coordinates": [ -89.4281444, 43.0571503 ] } },
{ "type": "Feature", "properties": { "element": "node", "id": 7165092925, "name": "Anytime Fitness", "category": "gym" }, "geometry": { "type": "Point", "coordinates": [ -89.3620044, 43.1124843 ] } },
{ "type": "Feature", "properties": { "element": "node", "id": 7486288095, "name": "Dragonfly Hot Yoga", "category": "gym" }, "geometry": { "type": "Point", "coordinates": [ -89.2701397, 43.168122 ] } },
{ "type": "Feature", "properties": { "element": "node", "id": 8144341155, "name": null, "category": "gym" }, "geometry": { "type": "Point", "coordinates": [ -89.4238682, 43.0789154 ] } },
{ "type": "Feature", "properties": { "element": "node", "id": 8232732980, "name": "India House", "category": "grocery" }, "geometry": { "type": "Point", "coordinates": [ -89.5027037, 43.0494127 ] } },
{ "type": "Feature", "properties": { "element": "node", "id": 8439097408, "name": "Peter Kraus Fitness", "category": "gym" }, "geometry": { "type": "Point", "coordinates": [ -89.5130029, 43.0955375 ] } },
{ "type": "Feature", "properties": { "element": "node", "id": 8928253666, "name": "Walgreens", "category": "pharmacy" }, "geometry": { "type": "Point", "coordinates": [ -89.3443077, 43.1025848 ] } },
{ "type": "Feature", "properties": { "element": "node", "id": 8969922205, "name": "Sevven Cycle", "category": "gym" }, "geometry": { "type": "Point", "coordinates": [ -89.3712755, 43.0841347 ] } },
{ "type": "Feature", "properties": { "element": "node", "id": 8975102412, "name": "Orangetheory Fitness", "category": "gym" }, "geometry": { "type": "Point", "coordinates": [ -89.2711074, 43.1655377 ] } },
{ "type": "Feature", "properties": { "element": "node", "id": 9085113900, "name": "Orthdx Fitness", "category": "gym" }, "geometry": { "type": "Point", "coordinates": [ -89.3630673, 43.127505 ] } },
{ "type": "Feature", "properties": { "element": "node", "id": 9125282617, "name": "Gracie", "category": "gym" }, "geometry": { "type": "Point", "coordinates": [ -89.4419942, 43.0755541 ] } },
{ "type": "Feature", "properties": { "element": "node", "id": 9196354897, "name": null, "category": "gym" }, "geometry": { "type": "Point", "coordinates": [ -89.5214341, 43.0944388 ] } },
{ "type": "Feature", "properties": { "element": "node", "id": 9294199451, "name": "Princeton Club", "category": "gym" }, "geometry": { "type": "Point", "coordinates": [ -89.3091235, 43.1216542 ] } },
{ "type": "Feature", "properties": { "element": "node", "id": 9377770012, "name": "CORE Health & Fitness", "category": "gym" }, "geometry": { "type": "Point", "coordinates": [ -89.5205149, 43.100022 ] } },
{ "type": "Feature", "properties": { "element": "node", "id": 9780781215, "name": null, "category": "gym" }, "geometry": { "type": "Point", "coordinates": [ -89.4224896, 43.0779985 ] } },
{ "type": "Feature", "properties": { "element": "node", "id": 9780781216, "name": null, "category": "gym" }, "geometry": { "type": "Point", "coordinates": [ -89.4230602, 43.0782395 ] } },
{ "type": "Feature", "properties": { "element": "node", "id": 10016351965, "name": "Maharaja Grocery", "category": "grocery" }, "geometry": { "type": "Point", "coordinates": [ -89.3106212, 43.1221365 ] } },
{ "type": "Feature", "properties": { "element": "node", "id": 10039990324, "name": "Hmong Legacy Market", "category": "grocery" }, "geometry": { "type": "Point", "coordinates": [ -89.403529, 43.04287 ] } },
{ "type": "Feature", "properties": { "element": "node", "id": 10065036615, "name": "Badger Fitness", "category": "gym" }, "geometry": { "type": "Point", "coordinates": [ -89.3106628, 43.0679461 ] } },
{ "type": "Feature", "properties": { "element": "node", "id": 10073336591, "name": null, "category": "gym" }, "geometry": { "type": "Point", "coordinates": [ -89.4893697, 43.0978069 ] } },
{ "type": "Feature", "properties": { "element": "node", "id": 10073336592, "name": null, "category": "gym" }, "geometry": { "type": "Point", "coordinates": [ -89.4886265, 43.0976467 ] } },
{ "type": "Feature", "properties": { "element": "node", "id": 10073336593, "name": null, "category": "gym" }, "geometry": { "type": "Point", "coordinates": [ -89.4895608, 43.0985227 ] } },
{ "type": "Feature", "properties": { "element": "node", "id": 10073336611, "name": null, "category": "gym" }, "geometry": { "type": "Point", "coordinates": [ -89.4885279, 43.0989709 ] } },
{ "type": "Feature", "properties": { "element": "node", "id": 10073336612, "name": null, "category": "gym" }, "geometry": { "type": "Point", "coordinates": [ -89.4879271, 43.0979319 ] } },
{ "type": "Feature", "properties": { "element": "node", "id": 10073336613, "name": null, "category": "gym" }, "geometry": { "type": "Point", "coordinates": [ -89.4873464, 43.0987535 ] } },
{ "type": "Feature", "properties": { "element": "node", "id": 10100113178, "name": "Paik's Martial Arts", "category": "gym" }, "geometry": { "type": "Point", "coordinates": [ -89.4251497, 43.0005631 ] } },
{ "type": "Feature", "properties": { "element": "node", "id": 10135541843, "name": "CVS Pharmacy", "category": "pharmacy" }, "geometry": { "type": "Point", "coordinates": [ -89.4824282, 43.0136525 ] } },
{ "type": "Feature", "properties": { "element": "node", "id": 10294143630, "name": "Basecamp Fitness Madison (East)", "category": "gym" }, "geometry": { "type": "Point", "coordinates": [ -89.3044758, 43.1314902 ] } },
{ "type": "Feature", "properties": { "element": "node", "id": 10819698783, "name": "Crunch Fitness", "category": "gym" }, "geometry": { "type": "Point", "coordinates": [ -89.511167, 43.0600013 ] } },
{ "type": "Feature", "properties": { "element": "node", "id": 11193726154, "name": "PCY Muay Thai", "category": "gym" }, "geometry": { "type": "Point", "coordinates": [ -89.3979165, 43.0263092 ] } },
{ "type": "Feature", "properties": { "element": "node", "id": 11369667131, "name": null, "category": "gym" }, "geometry": { "type": "Point", "coordinates": [ -89.4215844, 43.07776 ] } },
{ "type": "Feature", "properties": { "element": "node", "id": 11387836212, "name": "Spare Time", "category": "gym" }, "geometry": { "type": "Point", "coordinates": [ -89.5110767, 43.0595624 ] } },
{ "type": "Feature", "properties": { "element": "node", "id": 11492634480, "name": "CrossFit", "category": "gym" }, "geometry": { "type": "Point", "coordinates": [ -89.3744974, 43.076774 ] } },
{ "type": "Feature", "properties": { "element": "node", "id": 11531562903, "name": "Whole Foods Market", "category": "grocery" }, "geometry": { "type": "Point", "coordinates": [ -89.45849, 43.0744228 ] } },
{ "type": "Feature", "properties": { "element": "node", "id": 12142980711, "name": "MSCR East", "category": "gym" }, "geometry": { "type": "Point", "coordinates": [ -89.3015857, 43.0850165 ] } },
{ "type": "Feature", "properties": { "element": "node", "id": 12200949550, "name": "GHC-SCW Hatchery Hill Clinic Pharmacy", "category": "pharmacy" }, "geometry": { "type": "Point", "coordinates": [ -89.4205999, 43.0214435 ] } },
{ "type": "Feature", "properties": { "element": "node", "id": 12200949551, "name": "Hy-Vee Pharmacy", "category": "pharmacy" }, "geometry": { "type": "Point", "coordinates": [ -89.4801637, 43.0134915 ] } },
{ "type": "Feature", "properties": { "element": "node", "id": 12200949552, "name": "Modern Health Pharmacy", "category": "pharmacy" }, "geometry": { "type": "Point", "coordinates": [ -89.4085829, 43.0308826 ] } },
{ "type": "Feature", "properties": { "element": "node", "id": 12366151464, "name": "Supreme Health & Fitness", "category": "gym" }, "geometry": { "type": "Point", "coordinates": [ -89.4756314, 43.0492744 ] } },
{ "type": "Feature", "properties": { "element": "node", "id": 12549211906, "name": "Orange Shoe Personal Fitness", "category": "gym" }, "geometry": { "type": "Point", "coordinates": [ -89.2654574, 43.1772101 ] } },
{ "type": "Feature", "properties": { "element": "node", "id": 12668189232, "name": "Los Perez", "category": "grocery" }, "geometry": { "type": "Point", "coordinates": [ -89.3259804, 43.0542689 ] } },
{ "type": "Feature", "properties": { "element": "node", "id": 12668189234, "name": "Anytime Fitness", "category": "gym" }, "geometry": { "type": "Point", "coordinates": [ -89.324737, 43.0534495 ] } },
{ "type": "Feature", "properties": { "element": "node", "id": 12759722085, "name": "Hoey Apothecary", "category": "pharmacy" }, "geometry": { "type": "Point", "coordinates": [ -89.3242393, 43.0825375 ] } },
{ "type": "Feature", "properties": { "element": "node", "id": 12793289007, "name": "Purple Door Pilates", "category": "gym" }, "geometry": { "type": "Point", "coordinates": [ -89.3775015, 43.0833825 ] } },
{ "type": "Feature", "properties": { "element": "node", "id": 13080425936, "name": "Peter Kraus Fitness", "category": "gym" }, "geometry": { "type": "Point", "coordinates": [ -89.5421549, 42.9876814 ] } },
{ "type": "Feature", "properties": { "element": "node", "id": 13196105446, "name": "Barre District", "category": "gym" }, "geometry": { "type": "Point", "coordinates": [ -89.3714033, 43.0840342 ] } },
{ "type": "Feature", "properties": { "element": "node", "id": 13207706674, "name": "UW Health Park Street Pharmacy", "category": "pharmacy" }, "geometry": { "type": "Point", "coordinates": [ -89.4001088, 43.0669283 ] } },
{ "type": "Feature", "properties": { "element": "node", "id": 13246207655, "name": "Orange Shoe Personal Fitness Trainers", "category": "gym" }, "geometry": { "type": "Point", "coordinates": [ -89.4391008, 43.0746219 ] } },
{ "type": "Feature", "properties": { "element": "node", "id": 13264819064, "name": "Capital Fitness", "category": "gym" }, "geometry": { "type": "Point", "coordinates": [ -89.3814822, 43.0771513 ] } },
{ "type": "Feature", "properties": { "element": "node", "id": 13446879395, "name": "Pinnacle Health + Fitness", "category": "gym" }, "geometry": { "type": "Point", "coordinates": [ -89.384484, 43.0762499 ] } },
{ "type": "Feature", "properties": { "element": "node", "id": 13527458960, "name": "Capitol Fitness", "category": "gym" }, "geometry": { "type": "Point", "coordinates": [ -89.3894637, 43.0705632 ] } },
{ "type": "Feature", "properties": { "element": "way", "id": 26742793, "name": "Aldi", "category": "grocery" }, "geometry": { "type": "Point", "coordinates": [ -89.526226953994538, 43.056271210284713 ] } },
{ "type": "Feature", "properties": { "element": "way", "id": 26742828, "name": "Princeton Club", "category": "gym" }, "geometry": { "type": "Point", "coordinates": [ -89.519139214874912, 43.055147119053565 ] } },
{ "type": "Feature", "properties": { "element": "way", "id": 26790676, "name": "Miller & Sons Grocery", "category": "grocery" }, "geometry": { "type": "Point", "coordinates": [ -89.534247009431979, 42.989021042397745 ] } },
{ "type": "Feature", "properties": { "element": "way", "id": 28773270, "name": "Walmart Supercenter", "category": "grocery" }, "geometry": { "type": "Point", "coordinates": [ -89.349947265537537, 43.04250029892691 ] } },
{ "type": "Feature", "properties": { "element": "way", "id": 37308634, "name": "Enson Market", "category": "grocery" }, "geometry": { "type": "Point", "coordinates": [ -89.444100849496692, 43.074806106512177 ] } },
{ "type": "Feature", "properties": { "element": "way", "id": 37390087, "name": "Metro Market", "category": "grocery" }, "geometry": { "type": "Point", "coordinates": [ -89.44942852389326, 43.076503323077958 ] } },
{ "type": "Feature", "properties": { "element": "way", "id": 37390088, "name": "Walgreens", "category": "pharmacy" }, "geometry": { "type": "Point", "coordinates": [ -89.450531200202732, 43.07589018326761 ] } },
{ "type": "Feature", "properties": { "element": "way", "id": 37778222, "name": "Walgreens", "category": "pharmacy" }, "geometry": { "type": "Point", "coordinates": [ -89.527343601839249, 43.075442209282038 ] } },
{ "type": "Feature", "properties": { "element": "way", "id": 38064535, "name": "Nielsen Tennis Stadium", "category": "gym" }, "geometry": { "type": "Point", "coordinates": [ -89.430276818539937, 43.079627749313609 ] } },
{ "type": "Feature", "properties": { "element": "way", "id": 43926497, "name": "Woodman's Markets", "category": "grocery" }, "geometry": { "type": "Point", "coordinates": [ -89.500716860926403, 43.048816893506206 ] } },
{ "type": "Feature", "properties": { "element": "way", "id": 43926774, "name": "Pick 'n Save", "category": "grocery" }, "geometry": { "type": "Point", "coordinates": [ -89.498009552786115, 43.013676833553355 ] } },
{ "type": "Feature", "properties": { "element": "way", "id": 44000622, "name": "Walgreens", "category": "pharmacy" }, "geometry": { "type": "Point", "coordinates": [ -89.49795220339638, 43.015206524720732 ] } },
{ "type": "Feature", "properties": { "element": "way", "id": 44002200, "name": "Metro Market", "category": "grocery" }, "geometry": { "type": "Point", "coordinates": [ -89.52471334465703, 43.064921391934014 ] } },
{ "type": "Feature", "properties": { "element": "way", "id": 44745109, "name": "Metcalfe's", "category": "grocery" }, "geometry": { "type": "Point", "coordinates": [ -89.511146869677944, 43.058062577906568 ] } },
{ "type": "Feature", "properties": { "element": "way", "id": 48384487, "name": "Keva Sports Center", "category": "gym" }, "geometry": { "type": "Point", "coordinates": [ -89.527101032095089, 43.110795668136369 ] } },
{ "type": "Feature", "properties": { "element": "way", "id": 58675200, "name": "McClain Athletic Facility", "category": "gym" }, "geometry": { "type": "Point", "coordinates": [ -89.411229974357113, 43.070930124775082 ] } },
{ "type": "Feature", "properties": { "element": "way", "id": 62166459, "name": "John Powless Tennis Center", "category": "gym" }, "geometry": { "type": "Point", "coordinates": [ -89.495270661476042, 43.047883289220174 ] } },
{ "type": "Feature", "properties": { "element": "way", "id": 71371174, "name": "Walgreens", "category": "pharmacy" }, "geometry": { "type": "Point", "coordinates": [ -89.474464845688615, 43.053145478592569 ] } },
{ "type": "Feature", "properties": { "element": "way", "id": 86473052, "name": "YMCA of Dane County - West", "category": "gym" }, "geometry": { "type": "Point", "coordinates": [ -89.474426913831124, 43.047971720845368 ] } },
{ "type": "Feature", "properties": { "element": "way", "id": 97601525, "name": "Harbor Athletic Club", "category": "gym" }, "geometry": { "type": "Point", "coordinates": [ -89.485982772802174, 43.104459755741978 ] } },
{ "type": "Feature", "properties": { "element": "way", "id": 97601569, "name": "Walgreens", "category": "pharmacy" }, "geometry": { "type": "Point", "coordinates": [ -89.495441076187447, 43.097463123209863 ] } },
{ "type": "Feature", "properties": { "element": "way", "id": 97601627, "name": "Metro Market", "category": "grocery" }, "geometry": { "type": "Point", "coordinates": [ -89.497945216480701, 43.107656795807429 ] } },
{ "type": "Feature", "properties": { "element": "way", "id": 97601687, "name": "CVS Pharmacy", "category": "pharmacy" }, "geometry": { "type": "Point", "coordinates": [ -89.487793047033577, 43.104838065572515 ] } },
{ "type": "Feature", "properties": { "element": "way", "id": 99078073, "name": "Emler Swim School West Madison", "category": "gym" }, "geometry": { "type": "Point", "coordinates": [ -89.534016772713457, 43.080572100725803 ] } },
{ "type": "Feature", "properties": { "element": "way", "id": 102128126, "name": "Luna's Groceries", "category": "grocery" }, "geometry": { "type": "Point", "coordinates": [ -89.457444025220184, 43.031843895575363 ] } },
{ "type": "Feature", "properties": { "element": "way", "id": 102223754, "name": "Midway Foods Asian", "category": "grocery" }, "geometry": { "type": "Point", "coordinates": [ -89.400264824902621, 43.063875759375378 ] } },
{ "type": "Feature", "properties": { "element": "way", "id": 102757076, "name": "Capitol Centre Market", "category": "grocery" }, "geometry": { "type": "Point", "coordinates": [ -89.390232470583854, 43.072803822567799 ] } },
{ "type": "Feature", "properties": { "element": "way", "id": 105564832, "name": "Metro Market", "category": "grocery" }, "geometry": { "type": "Point", "coordinates": [ -89.322482084047621, 43.04570278321696 ] } },
{ "type": "Feature", "properties": { "element": "way", "id": 105681446, "name": "Global Market and Food Hall", "category": "grocery" }, "geometry": { "type": "Point", "coordinates": [ -89.300899523635138, 43.128173575149667 ] } },
{ "type": "Feature", "properties": { "element": "way", "id": 105823629, "name": "Gordon Food Service Store", "category": "grocery" }, "geometry": { "type": "Point", "coordinates": [ -89.497497198383613, 43.05943567499326 ] } },
{ "type": "Feature", "properties": { "element": "way", "id": 106042026, "name": "Walgreens", "category": "pharmacy" }, "geometry": { "type": "Point", "coordinates": [ -89.323911242321898, 43.11819457069889 ] } },
{ "type": "Feature", "properties": { "element": "way", "id": 107253266, "name": "Walmart Supercenter", "category": "grocery" }, "geometry": { "type": "Point", "coordinates": [ -89.312636525265944, 43.110862507182617 ] } },
{ "type": "Feature", "properties": { "element": "way", "id": 107261581, "name": "ALDI", "category": "grocery" }, "geometry": { "type": "Point", "coordinates": [ -89.316638107999125, 43.120065032722934 ] } },
{ "type": "Feature", "properties": { "element": "way", "id": 107656293, "name": "Kittleson Swim School", "category": "gym" }, "geometry": { "type": "Point", "coordinates": [ -89.474636988823775, 43.019259915703053 ] } },
{ "type": "Feature", "properties": { "element": "way", "id": 107656310, "name": "Gymfinity", "category": "gym" }, "geometry": { "type": "Point", "coordinates": [ -89.483101662944406, 43.008673897569757 ] } },
{ "type": "Feature", "properties": { "element": "way", "id": 107771319, "name": "Woodman's Markets", "category": "grocery" }, "geometry": { "type": "Point", "coordinates": [ -89.318946105683096, 43.096963536912874 ] } },
{ "type": "Feature", "properties": { "element": "way", "id": 119881009, "name": "Dan McClimon Memorial Track & Soccer Complex", "category": "gym" }, "geometry": { "type": "Point", "coordinates": [ -89.426185316795099, 43.077892354493926 ] } },
{ "type": "Feature", "properties": { "element": "way", "id": 120257722, "name": "Willy Street Co-op", "category": "grocery" }, "geometry": { "type": "Point", "coordinates": [ -89.362745243844074, 43.083667462537285 ] } },
{ "type": "Feature", "properties": { "element": "way", "id": 123372814, "name": "Princeton Club", "category": "gym" }, "geometry": { "type": "Point", "coordinates": [ -89.477268444405581, 43.013299170346897 ] } },
{ "type": "Feature", "properties": { "element": "way", "id": 133268872, "name": "Thomas Zimmer Championship Cross Country Course", "category": "gym" }, "geometry": { "type": "Point", "coordinates": [ -89.548451912278693, 43.019550527980016 ] } },
{ "type": "Feature", "properties": { "element": "way", "id": 159046155, "name": "Todd Wehr Edgedome", "category": "gym" }, "geometry": { "type": "Point", "coordinates": [ -89.421685898184563, 43.058306019181202 ] } },
{ "type": "Feature", "properties": { "element": "way", "id": 159161902, "name": "Hill Farms Swim Club", "category": "gym" }, "geometry": { "type": "Point", "coordinates": [ -89.463927228788236, 43.069501263619202 ] } },
{ "type": "Feature", "properties": { "element": "way", "id": 175151219, "name": "Nicholas-Johnson Pavilion and Plaza", "category": "gym" }, "geometry": { "type": "Point", "coordinates": [ -89.397932389544067, 43.069369146989622 ] } },
{ "type": "Feature", "properties": { "element": "way", "id": 175346220, "name": "Field House", "category": "gym" }, "geometry": { "type": "Point", "coordinates": [ -89.412680645395341, 43.068635067087769 ] } },
{ "type": "Feature", "properties": { "element": "way", "id": 200196916, "name": "Walgreens", "category": "pharmacy" }, "geometry": { "type": "Point", "coordinates": [ -89.426496120111736, 43.015308584934601 ] } },
{ "type": "Feature", "properties": { "element": "way", "id": 274056322, "name": "Neuhauser Pharmacy", "category": "pharmacy" }, "geometry": { "type": "Point", "coordinates": [ -89.417236608052974, 43.064603609581653 ] } },
{ "type": "Feature", "properties": { "element": "way", "id": 288511625, "name": "Hy-Vee - Fitchburg", "category": "grocery" }, "geometry": { "type": "Point", "coordinates": [ -89.479658697533253, 43.013237316091654 ] } },
{ "type": "Feature", "properties": { "element": "way", "id": 289287316, "name": "Woodman's Markets", "category": "grocery" }, "geometry": { "type": "Point", "coordinates": [ -89.266873032580008, 43.16453297087503 ] } },
{ "type": "Feature", "properties": { "element": "way", "id": 291570954, "name": "Pick 'n Save", "category": "grocery" }, "geometry": { "type": "Point", "coordinates": [ -89.395962833365203, 43.05217964599359 ] } },
{ "type": "Feature", "properties": { "element": "way", "id": 302322698, "name": "Hy-Vee", "category": "grocery" }, "geometry": { "type": "Point", "coordinates": [ -89.471371604499296, 43.050851741234169 ] } },
{ "type": "Feature", "properties": { "element": "way", "id": 314944390, "name": "Walgreens", "category": "pharmacy" }, "geometry": { "type": "Point", "coordinates": [ -89.517944442339314, 43.061385725114349 ] } },
{ "type": "Feature", "properties": { "element": "way", "id": 318742988, "name": "Seminole Pool & Tennis Club", "category": "gym" }, "geometry": { "type": "Point", "coordinates": [ -89.455789301575194, 43.010514166986084 ] } },
{ "type": "Feature", "properties": { "element": "way", "id": 345776183, "name": "Jenifer Street Market", "category": "grocery" }, "geometry": { "type": "Point", "coordinates": [ -89.351363303877591, 43.090519263989151 ] } },
{ "type": "Feature", "properties": { "element": "way", "id": 401847577, "name": "Pick 'n Save", "category": "grocery" }, "geometry": { "type": "Point", "coordinates": [ -89.299940862406018, 43.015857580660423 ] } },
{ "type": "Feature", "properties": { "element": "way", "id": 406524876, "name": null, "category": "gym" }, "geometry": { "type": "Point", "coordinates": [ -89.543887096402997, 43.034562038897121 ] } },
{ "type": "Feature", "properties": { "element": "way", "id": 417951775, "name": "Metro Market", "category": "grocery" }, "geometry": { "type": "Point", "coordinates": [ -89.27589591834888, 43.085279120487428 ] } },
{ "type": "Feature", "properties": { "element": "way", "id": 425596801, "name": "Breese Stevens Field", "category": "gym" }, "geometry": { "type": "Point", "coordinates": [ -89.37307368162169, 43.083382555717705 ] } },
{ "type": "Feature", "properties": { "element": "way", "id": 429530749, "name": "Don Beto Groceries", "category": "grocery" }, "geometry": { "type": "Point", "coordinates": [ -89.474200040151288, 43.044906672642185 ] } },
{ "type": "Feature", "properties": { "element": "way", "id": 429533621, "name": "Ridgewood Pool", "category": "gym" }, "geometry": { "type": "Point", "coordinates": [ -89.46760385521938, 43.035343215607007 ] } },
{ "type": "Feature", "properties": { "element": "way", "id": 429536330, "name": "Pick 'n Save", "category": "grocery" }, "geometry": { "type": "Point", "coordinates": [ -89.421257711383873, 43.018498063755821 ] } },
{ "type": "Feature", "properties": { "element": "way", "id": 434941077, "name": "Walter R. Bauman Aquatic Center", "category": "gym" }, "geometry": { "type": "Point", "coordinates": [ -89.504322340501616, 43.102107609103754 ] } },
{ "type": "Feature", "properties": { "element": "way", "id": 438081940, "name": "ALDI", "category": "grocery" }, "geometry": { "type": "Point", "coordinates": [ -89.265599706664574, 43.168101961169178 ] } },
{ "type": "Feature", "properties": { "element": "way", "id": 468747675, "name": "Fairway Lounge", "category": "gym" }, "geometry": { "type": "Point", "coordinates": [ -89.430331129251982, 43.014681321042659 ] } },
{ "type": "Feature", "properties": { "element": "way", "id": 469436580, "name": "Forward Athletics", "category": "gym" }, "geometry": { "type": "Point", "coordinates": [ -89.458822507922974, 43.010545740101598 ] } },
{ "type": "Feature", "properties": { "element": "way", "id": 469436582, "name": "Achieve Gymnastics Center", "category": "gym" }, "geometry": { "type": "Point", "coordinates": [ -89.458273240337704, 43.011543653639286 ] } },
{ "type": "Feature", "properties": { "element": "way", "id": 469436583, "name": "Pinnacle Health + Fitness", "category": "gym" }, "geometry": { "type": "Point", "coordinates": [ -89.458872825129831, 43.011125883630697 ] } },
{ "type": "Feature", "properties": { "element": "way", "id": 469436584, "name": "TOCA Soccer Center", "category": "gym" }, "geometry": { "type": "Point", "coordinates": [ -89.459145207131741, 43.012770434983914 ] } },
{ "type": "Feature", "properties": { "element": "way", "id": 489455290, "name": "Verona Athletic Center", "category": "gym" }, "geometry": { "type": "Point", "coordinates": [ -89.526717406192731, 42.973910904035392 ] } },
{ "type": "Feature", "properties": { "element": "way", "id": 504811977, "name": "Monona Community Pool", "category": "gym" }, "geometry": { "type": "Point", "coordinates": [ -89.34094633715263, 43.064067822564297 ] } },
{ "type": "Feature", "properties": { "element": "way", "id": 515350144, "name": "West Side Swim Club", "category": "gym" }, "geometry": { "type": "Point", "coordinates": [ -89.475014073118331, 43.049250421768498 ] } },
{ "type": "Feature", "properties": { "element": "way", "id": 554122487, "name": "Ford's Gym", "category": "gym" }, "geometry": { "type": "Point", "coordinates": [ -89.35368585, 43.09444625 ] } },
{ "type": "Feature", "properties": { "element": "way", "id": 568838099, "name": "YMCA", "category": "gym" }, "geometry": { "type": "Point", "coordinates": [ -89.314410683032733, 43.083173942262256 ] } },
{ "type": "Feature", "properties": { "element": "way", "id": 572463181, "name": "Anytime Fitness", "category": "gym" }, "geometry": { "type": "Point", "coordinates": [ -89.302794534526797, 43.014952307651974 ] } },
{ "type": "Feature", "properties": { "element": "way", "id": 572463183, "name": "Walgreens", "category": "pharmacy" }, "geometry": { "type": "Point", "coordinates": [ -89.302350894410736, 43.017082284664106 ] } },
{ "type": "Feature", "properties": { "element": "way", "id": 623178065, "name": null, "category": "gym" }, "geometry": { "type": "Point", "coordinates": [ -89.355713314641122, 43.103841324040161 ] } },
{ "type": "Feature", "properties": { "element": "way", "id": 678322664, "name": "Gooh Grocery", "category": "grocery" }, "geometry": { "type": "Point", "coordinates": [ -89.327125553326354, 43.115806560194528 ] } },
{ "type": "Feature", "properties": { "element": "way", "id": 683558092, "name": "Walgreens", "category": "pharmacy" }, "geometry": { "type": "Point", "coordinates": [ -89.30376725061403, 43.084710275715267 ] } },
{ "type": "Feature", "properties": { "element": "way", "id": 695835646, "name": null, "category": "gym" }, "geometry": { "type": "Point", "coordinates": [ -89.440429505053672, 43.075765521665829 ] } },
{ "type": "Feature", "properties": { "element": "way", "id": 695835647, "name": "Irwin A. & Robert D. Goodman Pool", "category": "gym" }, "geometry": { "type": "Point", "coordinates": [ -89.387878145500395, 43.053378010228329 ] } },
{ "type": "Feature", "properties": { "element": "way", "id": 733300507, "name": "Festival Foods", "category": "grocery" }, "geometry": { "type": "Point", "coordinates": [ -89.519741353278292, 42.995956642645503 ] } },
{ "type": "Feature", "properties": { "element": "way", "id": 749686549, "name": "YMCA", "category": "gym" }, "geometry": { "type": "Point", "coordinates": [ -89.263007635433695, 43.161216691158131 ] } },
{ "type": "Feature", "properties": { "element": "way", "id": 783226303, "name": null, "category": "gym" }, "geometry": { "type": "Point", "coordinates": [ -89.53440305, 43.11017275 ] } },
{ "type": "Feature", "properties": { "element": "way", "id": 951305769, "name": null, "category": "gym" }, "geometry": { "type": "Point", "coordinates": [ -89.53055335, 43.09294795 ] } },
{ "type": "Feature", "properties": { "element": "way", "id": 962367551, "name": "Twisted Fitness", "category": "gym" }, "geometry": { "type": "Point", "coordinates": [ -89.335046724837198, 43.108134654343644 ] } },
{ "type": "Feature", "properties": { "element": "way", "id": 1000383053, "name": "Nicholas Recreation Center", "category": "gym" }, "geometry": { "type": "Point", "coordinates": [ -89.398265658241627, 43.070534959009741 ] } },
{ "type": "Feature", "properties": { "element": "way", "id": 1120779778, "name": null, "category": "gym" }, "geometry": { "type": "Point", "coordinates": [ -89.283695685382895, 43.121660983757621 ] } },
{ "type": "Feature", "properties": { "element": "way", "id": 1134399581, "name": "Metcalfe's Market", "category": "grocery" }, "geometry": { "type": "Point", "coordinates": [ -89.452863985499832, 43.073981863077151 ] } },
{ "type": "Feature", "properties": { "element": "way", "id": 1134399590, "name": "Solidcore", "category": "gym" }, "geometry": { "type": "Point", "coordinates": [ -89.45282560206428, 43.07394380938166 ] } },
{ "type": "Feature", "properties": { "element": "way", "id": 1134399611, "name": "CycleBar", "category": "gym" }, "geometry": { "type": "Point", "coordinates": [ -89.45228112249896, 43.071454746163958 ] } },
{ "type": "Feature", "properties": { "element": "way", "id": 1135060656, "name": "Planet Fitness", "category": "gym" }, "geometry": { "type": "Point", "coordinates": [ -89.306019801728254, 43.124473499254137 ] } },
{ "type": "Feature", "properties": { "element": "way", "id": 1435799732, "name": "J&P Fresh Market", "category": "grocery" }, "geometry": { "type": "Point", "coordinates": [ -89.391191081931822, 43.074967895074799 ] } },
{ "type": "Feature", "properties": { "element": "way", "id": 1456789744, "name": "Park Crest Swim and Tennis Club", "category": "gym" }, "geometry": { "type": "Point", "coordinates": [ -89.49276475, 43.06798155 ] } },
{ "type": "Feature", "properties": { "element": "way", "id": 1459666083, "name": "Greater Heights Climbing", "category": "gym" }, "geometry": { "type": "Point", "coordinates": [ -89.38159672986923, 43.032642226049688 ] } }
]
}
